{"data":{"search":{"total":919,"business":[{"name":"Jade China","alias":"jade-china-san-jose-4","hours":[{"is_open_now":false}],"location":{"formatted_address":"2524 Berryessa Rd\nSan Jose, CA 95132"},"categories":[{"title":"Chinese","alias":"chinese"}],"phone":"+14089236288","rating":4.0},{"name":"Golden House Chinese Restaurant","alias":"golden-house-chinese-restaurant-san-jose","hours":[{"is_open_now":false}],"location":{"formatted_address":"7108 Santa Teresa Blvd\nSan Jose, CA 95139"},"categories":[{"title":"Chinese","alias":"chinese"}],"phone":"+14082258001","rating":4.0},{"name":"Grandma's Kitchen","alias":"grandmas-kitchen-cupertino","hours":[{"is_open_now":false}],"location":{"formatted_address":"19541 Richwood Dr\nCupertino, CA 95014"},"categories":[{"title":"Chinese","alias":"chinese"}],"phone":"+14083525052","rating":4.0},{"name":"Hunan Taste Restaurant","alias":"hunan-taste-restaurant-san-jose","hours":[{"is_open_now":false}],"location":{"formatted_address":"998 N 4th St\nSan Jose, CA 95112"},"categories":[{"title":"Chinese","alias":"chinese"}],"phone":"+14082951186","rating":4.0},{"name":"MingKee Deli","alias":"mingkee-deli-cupertino","hours":[],"location":{"formatted_address":"20956 Homestead Rd\nSte G\nCupertino, CA 95014"},"categories":[{"title":"Chinese","alias":"chinese"},{"title":"Soup","alias":"soup"}],"phone":"","rating":4.0}]}}}